{
"type": "FeatureCollection",
"features": [
  {
    "geometry": {
      "type": "Point",
      "coordinates": [153.03764,-27.4476872]
    },
    "type": "Feature",
    "properties": {
      "category": "service",
      "name": "Bowen Hills",
      "storeid": "1"
    }
  },
  {
    "geometry": {
      "type": "Point",
      "coordinates": [153.0260341,-27.4704528]
    },
    "type": "Feature",
    "properties": {
      "category": "service",
      "name": "Brisbane",
      "storeid": "2"
    }
  },
  {
    "geometry": {
      "type": "Point",
      "coordinates": [153.0356579,-27.457826]
    },
    "type": "Feature",
    "properties": {
      "category": "service",
      "name": "Fortitude Valley",
      "storeid": "3"
    }
  },
  {
    "geometry": {
      "type": "Point",
      "coordinates": [153.0247958,-27.4481676]
    },
    "type": "Feature",
    "properties": {
      "category": "service",
      "name": "Herston",
      "storeid": "4"
    }
  },
  {
    "geometry": {
      "type": "Point",
      "coordinates": [153.0162867,-27.4870111]
    },
    "type": "Feature",
    "properties": {
      "category": "service",
      "name": "Highgate Hill",
      "storeid": "5"
    }
  },
  {
    "geometry": {
      "type": "Point",
      "coordinates": [153.0356296,-27.4759532]
    },
    "type": "Feature",
    "properties": {
      "category": "service",
      "name": "Kangaroo Point",
      "storeid": "6"
    }
  },
  {
    "geometry": {
      "type": "Point",
      "coordinates": [153.0111068,-27.4491419]
    },
    "type": "Feature",
    "properties": {
      "category": "service",
      "name": "Kelvin Grove",
      "storeid": "7"
    }
  },
  {
    "geometry": {
      "type": "Point",
      "coordinates": [153.0461595,-27.4671634]
    },
    "type": "Feature",
    "properties": {
      "category": "service",
      "name": "New Farm",
      "storeid": "8"
    }
  },
  {
    "geometry": {
      "type": "Point",
      "coordinates": [153.0439282,-27.4483973]
    },
    "type": "Feature",
    "properties": {
      "category": "service",
      "name": "Newstead",
      "storeid": "9"
    }
  },
  {
    "geometry": {
      "type": "Point",
      "coordinates": [151.2262353,-33.8850215]
    },
    "type": "Feature",
    "properties": {
      "category": "service",
      "name": "Paddington",
      "storeid": "10"
    }
  },
  {
    "geometry": {
      "type": "Point",
      "coordinates": [153.0132267,-27.4650118]
    },
    "type": "Feature",
    "properties": {
      "category": "service",
      "name": "Petrie Terrace",
      "storeid": "11"
    }
  },
  {
    "geometry": {
      "type": "Point",
      "coordinates": [145.01063,-38.3697066999999]
    },
    "type": "Feature",
    "properties": {
      "category": "service",
      "name": "Red Hill",
      "storeid": "12"
    }
  },
  {
    "geometry": {
      "type": "Point",
      "coordinates": [153.026552,-27.4611647]
    },
    "type": "Feature",
    "properties": {
      "category": "service",
      "name": "Spring Hill",
      "storeid": "13"
    }
  },
  {
    "geometry": {
      "type": "Point",
      "coordinates": [153.0470957,-27.454806]
    },
    "type": "Feature",
    "properties": {
      "category": "service",
      "name": "Teneriffe",
      "storeid": "14"
    }
  },
  {
    "geometry": {
      "type": "Point",
      "coordinates": [153.0120685,-27.4809778]
    },
    "type": "Feature",
    "properties": {
      "category": "service",
      "name": "West End",
      "storeid": "15"
    }
  },
  {
    "geometry": {
      "type": "Point",
      "coordinates": [153.035968,-27.486534]
    },
    "type": "Feature",
    "properties": {
      "category": "service",
      "name": "Woolloongabba",
      "storeid": "16"
    }
  },
  {
    "geometry": {
      "type": "Point",
      "coordinates": [153.0428584,-27.4321115]
    },
    "type": "Feature",
    "properties": {
      "category": "service",
      "name": "Albion",
      "storeid": "17"
    }
  },
  {
    "geometry": {
      "type": "Point",
      "coordinates": [153.0011531,-27.4253256]
    },
    "type": "Feature",
    "properties": {
      "category": "service",
      "name": "Alderley",
      "storeid": "18"
    }
  },
  {
    "geometry": {
      "type": "Point",
      "coordinates": [115.9296977,-31.9355756]
    },
    "type": "Feature",
    "properties": {
      "category": "service",
      "name": "Ascot",
      "storeid": "19"
    }
  },
  {
    "geometry": {
      "type": "Point",
      "coordinates": [153.0157,-27.3639]
    },
    "type": "Feature",
    "properties": {
      "category": "service",
      "name": "Aspley",
      "storeid": "20"
    }
  },
  {
    "geometry": {
      "type": "Point",
      "coordinates": [150.9939032,-34.2213419]
    },
    "type": "Feature",
    "properties": {
      "category": "service",
      "name": "Bald Hills",
      "storeid": "21"
    }
  },
  {
    "geometry": {
      "type": "Point",
      "coordinates": [153.0806722,-27.3759739]
    },
    "type": "Feature",
    "properties": {
      "category": "service",
      "name": "Banyo",
      "storeid": "22"
    }
  },
  {
    "geometry": {
      "type": "Point",
      "coordinates": [153.0606302,-27.3533586]
    },
    "type": "Feature",
    "properties": {
      "category": "service",
      "name": "Boondall",
      "storeid": "23"
    }
  },
  {
    "geometry": {
      "type": "Point",
      "coordinates": [153.0266071,-27.3237467]
    },
    "type": "Feature",
    "properties": {
      "category": "service",
      "name": "Bracken Ridge",
      "storeid": "24"
    }
  },
  {
    "geometry": {
      "type": "Point",
      "coordinates": [152.9942,-27.355]
    },
    "type": "Feature",
    "properties": {
      "category": "service",
      "name": "Bridgeman Downs",
      "storeid": "25"
    }
  },
  {
    "geometry": {
      "type": "Point",
      "coordinates": [144.9915515,-37.9128827]
    },
    "type": "Feature",
    "properties": {
      "category": "service",
      "name": "Brighton",
      "storeid": "26"
    }
  },
  {
    "geometry": {
      "type": "Point",
      "coordinates": [153.0138992,-27.3461724]
    },
    "type": "Feature",
    "properties": {
      "category": "service",
      "name": "Carseldine",
      "storeid": "27"
    }
  },
  {
    "geometry": {
      "type": "Point",
      "coordinates": [153.0310009,-27.3858322]
    },
    "type": "Feature",
    "properties": {
      "category": "service",
      "name": "Chermside",
      "storeid": "28"
    }
  },
  {
    "geometry": {
      "type": "Point",
      "coordinates": [153.0583828,-27.4159369]
    },
    "type": "Feature",
    "properties": {
      "category": "service",
      "name": "Clayfield",
      "storeid": "29"
    }
  },
  {
    "geometry": {
      "type": "Point",
      "coordinates": [153.061884,-27.3270681]
    },
    "type": "Feature",
    "properties": {
      "category": "service",
      "name": "Deagon",
      "storeid": "30"
    }
  },
  {
    "geometry": {
      "type": "Point",
      "coordinates": [153.0941952,-27.4326992]
    },
    "type": "Feature",
    "properties": {
      "category": "service",
      "name": "Eagle Farm",
      "storeid": "31"
    }
  },
  {
    "geometry": {
      "type": "Point",
      "coordinates": [152.9864871,-27.4006228]
    },
    "type": "Feature",
    "properties": {
      "category": "service",
      "name": "Everton Park",
      "storeid": "32"
    }
  },
  {
    "geometry": {
      "type": "Point",
      "coordinates": [152.9277878,-27.4048267]
    },
    "type": "Feature",
    "properties": {
      "category": "service",
      "name": "Ferny Grove",
      "storeid": "33"
    }
  },
  {
    "geometry": {
      "type": "Point",
      "coordinates": [153.02734,-27.3389191]
    },
    "type": "Feature",
    "properties": {
      "category": "service",
      "name": "Fitzgibbon",
      "storeid": "34"
    }
  },
  {
    "geometry": {
      "type": "Point",
      "coordinates": [152.982847,-27.4177567]
    },
    "type": "Feature",
    "properties": {
      "category": "service",
      "name": "Gaythorne",
      "storeid": "35"
    }
  },
  {
    "geometry": {
      "type": "Point",
      "coordinates": [153.046595,-27.375918]
    },
    "type": "Feature",
    "properties": {
      "category": "service",
      "name": "Geebung",
      "storeid": "36"
    }
  },
  {
    "geometry": {
      "type": "Point",
      "coordinates": [153.0268939,-27.4149451]
    },
    "type": "Feature",
    "properties": {
      "category": "service",
      "name": "Gordon Park",
      "storeid": "37"
    }
  },
  {
    "geometry": {
      "type": "Point",
      "coordinates": [138.4937098,-34.9023032]
    },
    "type": "Feature",
    "properties": {
      "category": "service",
      "name": "Grange",
      "storeid": "38"
    }
  },
  {
    "geometry": {
      "type": "Point",
      "coordinates": [142.0216734,-37.7420251]
    },
    "type": "Feature",
    "properties": {
      "category": "service",
      "name": "Hamilton",
      "storeid": "39"
    }
  },
  {
    "geometry": {
      "type": "Point",
      "coordinates": [153.0736864,-27.4192349]
    },
    "type": "Feature",
    "properties": {
      "category": "service",
      "name": "Hendra",
      "storeid": "40"
    }
  },
  {
    "geometry": {
      "type": "Point",
      "coordinates": [149.1391226,-35.2088449]
    },
    "type": "Feature",
    "properties": {
      "category": "service",
      "name": "Kalinga",
      "storeid": "41"
    }
  },
  {
    "geometry": {
      "type": "Point",
      "coordinates": [153.031578,-27.4000075]
    },
    "type": "Feature",
    "properties": {
      "category": "service",
      "name": "Kedron",
      "storeid": "42"
    }
  },
  {
    "geometry": {
      "type": "Point",
      "coordinates": [152.9489812,-27.4145744]
    },
    "type": "Feature",
    "properties": {
      "category": "service",
      "name": "Keperra",
      "storeid": "43"
    }
  },
  {
    "geometry": {
      "type": "Point",
      "coordinates": [153.033773,-27.42289]
    },
    "type": "Feature",
    "properties": {
      "category": "service",
      "name": "Lutwyche",
      "storeid": "44"
    }
  },
  {
    "geometry": {
      "type": "Point",
      "coordinates": [152.9887279,-27.3795154]
    },
    "type": "Feature",
    "properties": {
      "category": "service",
      "name": "McDowall",
      "storeid": "45"
    }
  },
  {
    "geometry": {
      "type": "Point",
      "coordinates": [152.9740677,-27.4133382]
    },
    "type": "Feature",
    "properties": {
      "category": "service",
      "name": "Mitchelton",
      "storeid": "46"
    }
  },
  {
    "geometry": {
      "type": "Point",
      "coordinates": [153.1322971,-27.4004105]
    },
    "type": "Feature",
    "properties": {
      "category": "service",
      "name": "Myrtletown",
      "storeid": "47"
    }
  },
  {
    "geometry": {
      "type": "Point",
      "coordinates": [153.0069501,-27.4369317]
    },
    "type": "Feature",
    "properties": {
      "category": "service",
      "name": "Newmarket",
      "storeid": "48"
    }
  },
  {
    "geometry": {
      "type": "Point",
      "coordinates": [153.066,-27.39]
    },
    "type": "Feature",
    "properties": {
      "category": "service",
      "name": "Northgate",
      "storeid": "49"
    }
  },
  {
    "geometry": {
      "type": "Point",
      "coordinates": [153.0856081,-27.36969]
    },
    "type": "Feature",
    "properties": {
      "category": "service",
      "name": "Nudgee",
      "storeid": "50"
    }
  },
  {
    "geometry": {
      "type": "Point",
      "coordinates": [153.0604371,-27.4034491]
    },
    "type": "Feature",
    "properties": {
      "category": "service",
      "name": "Nundah",
      "storeid": "51"
    }
  },
  {
    "geometry": {
      "type": "Point",
      "coordinates": [153.1112937,-27.4309439]
    },
    "type": "Feature",
    "properties": {
      "category": "service",
      "name": "Pinkenba",
      "storeid": "52"
    }
  },
  {
    "geometry": {
      "type": "Point",
      "coordinates": [153.0701735,-27.3208078]
    },
    "type": "Feature",
    "properties": {
      "category": "service",
      "name": "Sandgate",
      "storeid": "53"
    }
  },
  {
    "geometry": {
      "type": "Point",
      "coordinates": [153.0806919,-27.3254705]
    },
    "type": "Feature",
    "properties": {
      "category": "service",
      "name": "Shorncliffe",
      "storeid": "54"
    }
  },
  {
    "geometry": {
      "type": "Point",
      "coordinates": [153.0168862,-27.4104894]
    },
    "type": "Feature",
    "properties": {
      "category": "service",
      "name": "Stafford",
      "storeid": "55"
    }
  },
  {
    "geometry": {
      "type": "Point",
      "coordinates": [153.047836,-27.3420318]
    },
    "type": "Feature",
    "properties": {
      "category": "service",
      "name": "Taigum",
      "storeid": "56"
    }
  },
  {
    "geometry": {
      "type": "Point",
      "coordinates": [138.5611103,-34.6685127999999]
    },
    "type": "Feature",
    "properties": {
      "category": "service",
      "name": "Virginia",
      "storeid": "57"
    }
  },
  {
    "geometry": {
      "type": "Point",
      "coordinates": [153.0414172,-27.3949683]
    },
    "type": "Feature",
    "properties": {
      "category": "service",
      "name": "Wavell Heights",
      "storeid": "58"
    }
  },
  {
    "geometry": {
      "type": "Point",
      "coordinates": [153.0170216,-27.4360559]
    },
    "type": "Feature",
    "properties": {
      "category": "service",
      "name": "Wilston",
      "storeid": "59"
    }
  },
  {
    "geometry": {
      "type": "Point",
      "coordinates": [150.82046,-33.606782]
    },
    "type": "Feature",
    "properties": {
      "category": "service",
      "name": "Windsor",
      "storeid": "60"
    }
  },
  {
    "geometry": {
      "type": "Point",
      "coordinates": [153.0430571,-27.4201884]
    },
    "type": "Feature",
    "properties": {
      "category": "service",
      "name": "Wooloowin",
      "storeid": "61"
    }
  },
  {
    "geometry": {
      "type": "Point",
      "coordinates": [153.0382229,-27.359467]
    },
    "type": "Feature",
    "properties": {
      "category": "service",
      "name": "Zillmere",
      "storeid": "62"
    }
  },
  {
    "geometry": {
      "type": "Point",
      "coordinates": [153.0270551,-27.5873761]
    },
    "type": "Feature",
    "properties": {
      "category": "service",
      "name": "Acacia Ridge",
      "storeid": "63"
    }
  },
  {
    "geometry": {
      "type": "Point",
      "coordinates": [153.0358129,-27.6116413]
    },
    "type": "Feature",
    "properties": {
      "category": "service",
      "name": "Algester",
      "storeid": "64"
    }
  },
  {
    "geometry": {
      "type": "Point",
      "coordinates": [153.0309346,-27.5138962]
    },
    "type": "Feature",
    "properties": {
      "category": "service",
      "name": "Annerley",
      "storeid": "65"
    }
  },
  {
    "geometry": {
      "type": "Point",
      "coordinates": [153.0151652,-27.5670122]
    },
    "type": "Feature",
    "properties": {
      "category": "service",
      "name": "Archerfield",
      "storeid": "66"
    }
  },
  {
    "geometry": {
      "type": "Point",
      "coordinates": [153.1449947,-27.5546939]
    },
    "type": "Feature",
    "properties": {
      "category": "service",
      "name": "Burbank",
      "storeid": "67"
    }
  },
  {
    "geometry": {
      "type": "Point",
      "coordinates": [153.04836,-27.6235502]
    },
    "type": "Feature",
    "properties": {
      "category": "service",
      "name": "Calamvale",
      "storeid": "68"
    }
  },
  {
    "geometry": {
      "type": "Point",
      "coordinates": [153.0381708,-27.5704325]
    },
    "type": "Feature",
    "properties": {
      "category": "service",
      "name": "Coopers Plains",
      "storeid": "69"
    }
  },
  {
    "geometry": {
      "type": "Point",
      "coordinates": [152.9568256,-27.5613337]
    },
    "type": "Feature",
    "properties": {
      "category": "service",
      "name": "Darra",
      "storeid": "70"
    }
  },
  {
    "geometry": {
      "type": "Point",
      "coordinates": [152.9866773,-27.6130263]
    },
    "type": "Feature",
    "properties": {
      "category": "service",
      "name": "Doolandella",
      "storeid": "71"
    }
  },
  {
    "geometry": {
      "type": "Point",
      "coordinates": [153.0519489,-27.6535958]
    },
    "type": "Feature",
    "properties": {
      "category": "service",
      "name": "Drewvale",
      "storeid": "72"
    }
  },
  {
    "geometry": {
      "type": "Point",
      "coordinates": [133.775136,-25.274398]
    },
    "type": "Feature",
    "properties": {
      "category": "service",
      "name": "Durack",
      "storeid": "73"
    }
  },
  {
    "geometry": {
      "type": "Point",
      "coordinates": [153.025192,-27.4954044]
    },
    "type": "Feature",
    "properties": {
      "category": "service",
      "name": "Dutton Park",
      "storeid": "74"
    }
  },
  {
    "geometry": {
      "type": "Point",
      "coordinates": [153.0921619,-27.5758579]
    },
    "type": "Feature",
    "properties": {
      "category": "service",
      "name": "Eight Mile Plains",
      "storeid": "75"
    }
  },
  {
    "geometry": {
      "type": "Point",
      "coordinates": [152.933862,-27.6106664]
    },
    "type": "Feature",
    "properties": {
      "category": "service",
      "name": "Ellen Grove",
      "storeid": "76"
    }
  },
  {
    "geometry": {
      "type": "Point",
      "coordinates": [150.9564102,-33.8705856]
    },
    "type": "Feature",
    "properties": {
      "category": "service",
      "name": "Fairfield",
      "storeid": "77"
    }
  },
  {
    "geometry": {
      "type": "Point",
      "coordinates": [152.9703581,-27.6248849]
    },
    "type": "Feature",
    "properties": {
      "category": "service",
      "name": "Forest Lake",
      "storeid": "78"
    }
  },
  {
    "geometry": {
      "type": "Point",
      "coordinates": [153.0513859,-27.5080911]
    },
    "type": "Feature",
    "properties": {
      "category": "service",
      "name": "Greenslopes",
      "storeid": "79"
    }
  },
  {
    "geometry": {
      "type": "Point",
      "coordinates": [152.9917087,-27.6348312]
    },
    "type": "Feature",
    "properties": {
      "category": "service",
      "name": "Heathwood",
      "storeid": "80"
    }
  },
  {
    "geometry": {
      "type": "Point",
      "coordinates": [153.0674032,-27.5184145]
    },
    "type": "Feature",
    "properties": {
      "category": "service",
      "name": "Holland Park",
      "storeid": "81"
    }
  },
  {
    "geometry": {
      "type": "Point",
      "coordinates": [152.9684869,-27.5967027]
    },
    "type": "Feature",
    "properties": {
      "category": "service",
      "name": "Inala",
      "storeid": "82"
    }
  },
  {
    "geometry": {
      "type": "Point",
      "coordinates": [153.0944355,-27.6403498]
    },
    "type": "Feature",
    "properties": {
      "category": "service",
      "name": "Karawatha",
      "storeid": "83"
    }
  },
  {
    "geometry": {
      "type": "Point",
      "coordinates": [153.0941441,-27.6063115]
    },
    "type": "Feature",
    "properties": {
      "category": "service",
      "name": "Kuraby",
      "storeid": "84"
    }
  },
  {
    "geometry": {
      "type": "Point",
      "coordinates": [153.0093366,-27.6396798]
    },
    "type": "Feature",
    "properties": {
      "category": "service",
      "name": "Larapinta",
      "storeid": "85"
    }
  },
  {
    "geometry": {
      "type": "Point",
      "coordinates": [149.0119721,-35.2101387]
    },
    "type": "Feature",
    "properties": {
      "category": "service",
      "name": "MacGregor",
      "storeid": "86"
    }
  },
  {
    "geometry": {
      "type": "Point",
      "coordinates": [153.1217063,-27.5416334]
    },
    "type": "Feature",
    "properties": {
      "category": "service",
      "name": "Mackenzie",
      "storeid": "87"
    }
  },
  {
    "geometry": {
      "type": "Point",
      "coordinates": [146.0883416,-37.0520313]
    },
    "type": "Feature",
    "properties": {
      "category": "service",
      "name": "Mansfield",
      "storeid": "88"
    }
  },
  {
    "geometry": {
      "type": "Point",
      "coordinates": [153.0249414,-27.5328573]
    },
    "type": "Feature",
    "properties": {
      "category": "service",
      "name": "Moorooka",
      "storeid": "89"
    }
  },
  {
    "geometry": {
      "type": "Point",
      "coordinates": [153.0671385,-27.5364014]
    },
    "type": "Feature",
    "properties": {
      "category": "service",
      "name": "Mount Gravatt",
      "storeid": "90"
    }
  },
  {
    "geometry": {
      "type": "Point",
      "coordinates": [153.0426884,-27.5434365]
    },
    "type": "Feature",
    "properties": {
      "category": "service",
      "name": "Nathan",
      "storeid": "91"
    }
  },
  {
    "geometry": {
      "type": "Point",
      "coordinates": [152.993605,-27.6272875]
    },
    "type": "Feature",
    "properties": {
      "category": "service",
      "name": "Pallara",
      "storeid": "92"
    }
  },
  {
    "geometry": {
      "type": "Point",
      "coordinates": [149.1328211,-35.316932]
    },
    "type": "Feature",
    "properties": {
      "category": "service",
      "name": "Parkinson",
      "storeid": "93"
    }
  },
  {
    "geometry": {
      "type": "Point",
      "coordinates": [152.9575743,-27.5822777]
    },
    "type": "Feature",
    "properties": {
      "category": "service",
      "name": "Richlands",
      "storeid": "94"
    }
  },
  {
    "geometry": {
      "type": "Point",
      "coordinates": [150.5915109,-34.5885493]
    },
    "type": "Feature",
    "properties": {
      "category": "service",
      "name": "Robertson",
      "storeid": "95"
    }
  },
  {
    "geometry": {
      "type": "Point",
      "coordinates": [153.1164813,-27.56924]
    },
    "type": "Feature",
    "properties": {
      "category": "service",
      "name": "Rochedale",
      "storeid": "96"
    }
  },
  {
    "geometry": {
      "type": "Point",
      "coordinates": [152.9987877,-27.5594282]
    },
    "type": "Feature",
    "properties": {
      "category": "service",
      "name": "Rocklea",
      "storeid": "97"
    }
  },
  {
    "geometry": {
      "type": "Point",
      "coordinates": [153.0771548,-27.5974724]
    },
    "type": "Feature",
    "properties": {
      "category": "service",
      "name": "Runcorn",
      "storeid": "98"
    }
  },
  {
    "geometry": {
      "type": "Point",
      "coordinates": [138.6441622,-34.7638353]
    },
    "type": "Feature",
    "properties": {
      "category": "service",
      "name": "Salisbury",
      "storeid": "99"
    }
  },
  {
    "geometry": {
      "type": "Point",
      "coordinates": [152.959,-27.551]
    },
    "type": "Feature",
    "properties": {
      "category": "service",
      "name": "Seventeen Mile Rocks",
      "storeid": "100"
    }
  },
  {
    "geometry": {
      "type": "Point",
      "coordinates": [152.9447526,-27.5454226]
    },
    "type": "Feature",
    "properties": {
      "category": "service",
      "name": "Sinnamon Park",
      "storeid": "101"
    }
  },
  {
    "geometry": {
      "type": "Point",
      "coordinates": [153.0466779,-27.498707]
    },
    "type": "Feature",
    "properties": {
      "category": "service",
      "name": "Stones Corner",
      "storeid": "102"
    }
  },
  {
    "geometry": {
      "type": "Point",
      "coordinates": [153.0669558,-27.6148449]
    },
    "type": "Feature",
    "properties": {
      "category": "service",
      "name": "Stretton",
      "storeid": "103"
    }
  },
  {
    "geometry": {
      "type": "Point",
      "coordinates": [152.9363121,-27.5636491]
    },
    "type": "Feature",
    "properties": {
      "category": "service",
      "name": "Sumner",
      "storeid": "104"
    }
  },
  {
    "geometry": {
      "type": "Point",
      "coordinates": [153.0627242,-27.5792623]
    },
    "type": "Feature",
    "properties": {
      "category": "service",
      "name": "Sunnybank",
      "storeid": "105"
    }
  },
  {
    "geometry": {
      "type": "Point",
      "coordinates": [153.0449175,-27.5323691]
    },
    "type": "Feature",
    "properties": {
      "category": "service",
      "name": "Tarragindi",
      "storeid": "106"
    }
  },
  {
    "geometry": {
      "type": "Point",
      "coordinates": [138.4868079,-34.8869549]
    },
    "type": "Feature",
    "properties": {
      "category": "service",
      "name": "Tennyson",
      "storeid": "107"
    }
  },
  {
    "geometry": {
      "type": "Point",
      "coordinates": [153.0799661,-27.5546971]
    },
    "type": "Feature",
    "properties": {
      "category": "service",
      "name": "Upper Mount Gravatt",
      "storeid": "108"
    }
  },
  {
    "geometry": {
      "type": "Point",
      "coordinates": [152.9254168,-27.588756]
    },
    "type": "Feature",
    "properties": {
      "category": "service",
      "name": "Wacol",
      "storeid": "109"
    }
  },
  {
    "geometry": {
      "type": "Point",
      "coordinates": [153.0048274,-27.594358]
    },
    "type": "Feature",
    "properties": {
      "category": "service",
      "name": "Willawong",
      "storeid": "110"
    }
  },
  {
    "geometry": {
      "type": "Point",
      "coordinates": [130.928913,-12.461181]
    },
    "type": "Feature",
    "properties": {
      "category": "service",
      "name": "Wishart",
      "storeid": "111"
    }
  },
  {
    "geometry": {
      "type": "Point",
      "coordinates": [153.012,-27.53]
    },
    "type": "Feature",
    "properties": {
      "category": "service",
      "name": "Yeerongpilly",
      "storeid": "112"
    }
  },
  {
    "geometry": {
      "type": "Point",
      "coordinates": [153.014764,-27.5121403]
    },
    "type": "Feature",
    "properties": {
      "category": "service",
      "name": "Yeronga",
      "storeid": "113"
    }
  },
  {
    "geometry": {
      "type": "Point",
      "coordinates": [151.2512793,-33.8263662]
    },
    "type": "Feature",
    "properties": {
      "category": "service",
      "name": "Balmoral",
      "storeid": "114"
    }
  },
  {
    "geometry": {
      "type": "Point",
      "coordinates": [115.9297417,-31.9497631]
    },
    "type": "Feature",
    "properties": {
      "category": "service",
      "name": "Belmont",
      "storeid": "115"
    }
  },
  {
    "geometry": {
      "type": "Point",
      "coordinates": [153.0586203,-27.4481394]
    },
    "type": "Feature",
    "properties": {
      "category": "service",
      "name": "Bulimba",
      "storeid": "116"
    }
  },
  {
    "geometry": {
      "type": "Point",
      "coordinates": [153.076164,-27.4982559]
    },
    "type": "Feature",
    "properties": {
      "category": "service",
      "name": "Camp Hill",
      "storeid": "117"
    }
  },
  {
    "geometry": {
      "type": "Point",
      "coordinates": [153.0960423,-27.4711751]
    },
    "type": "Feature",
    "properties": {
      "category": "service",
      "name": "Cannon Hill",
      "storeid": "118"
    }
  },
  {
    "geometry": {
      "type": "Point",
      "coordinates": [153.0970062,-27.4833383]
    },
    "type": "Feature",
    "properties": {
      "category": "service",
      "name": "Carina",
      "storeid": "119"
    }
  },
  {
    "geometry": {
      "type": "Point",
      "coordinates": [153.1125044,-27.5198367]
    },
    "type": "Feature",
    "properties": {
      "category": "service",
      "name": "Carindale",
      "storeid": "120"
    }
  },
  {
    "geometry": {
      "type": "Point",
      "coordinates": [153.1563624,-27.5139929]
    },
    "type": "Feature",
    "properties": {
      "category": "service",
      "name": "Chandler",
      "storeid": "121"
    }
  },
  {
    "geometry": {
      "type": "Point",
      "coordinates": [153.0592549,-27.4945318]
    },
    "type": "Feature",
    "properties": {
      "category": "service",
      "name": "Coorparoo",
      "storeid": "122"
    }
  },
  {
    "geometry": {
      "type": "Point",
      "coordinates": [153.1526664,-27.4946874]
    },
    "type": "Feature",
    "properties": {
      "category": "service",
      "name": "Gumdale",
      "storeid": "123"
    }
  },
  {
    "geometry": {
      "type": "Point",
      "coordinates": [153.0603506,-27.4620046]
    },
    "type": "Feature",
    "properties": {
      "category": "service",
      "name": "Hawthorne",
      "storeid": "124"
    }
  },
  {
    "geometry": {
      "type": "Point",
      "coordinates": [153.1258815,-27.4455473]
    },
    "type": "Feature",
    "properties": {
      "category": "service",
      "name": "Hemmant",
      "storeid": "125"
    }
  },
  {
    "geometry": {
      "type": "Point",
      "coordinates": [153.1820937,-27.467028]
    },
    "type": "Feature",
    "properties": {
      "category": "service",
      "name": "Lota",
      "storeid": "126"
    }
  },
  {
    "geometry": {
      "type": "Point",
      "coordinates": [153.1530486,-27.4254125]
    },
    "type": "Feature",
    "properties": {
      "category": "service",
      "name": "Lytton",
      "storeid": "127"
    }
  },
  {
    "geometry": {
      "type": "Point",
      "coordinates": [151.2850167,-33.7968627]
    },
    "type": "Feature",
    "properties": {
      "category": "service",
      "name": "Manly",
      "storeid": "128"
    }
  },
  {
    "geometry": {
      "type": "Point",
      "coordinates": [153.4154233,-27.0873207]
    },
    "type": "Feature",
    "properties": {
      "category": "service",
      "name": "Moreton Island",
      "storeid": "129"
    }
  },
  {
    "geometry": {
      "type": "Point",
      "coordinates": [153.0736842,-27.4668102]
    },
    "type": "Feature",
    "properties": {
      "category": "service",
      "name": "Morningside",
      "storeid": "130"
    }
  },
  {
    "geometry": {
      "type": "Point",
      "coordinates": [-27.4568601,153.0985626]
    },
    "type": "Feature",
    "properties": {
      "category": "service",
      "name": "Murarrie",
      "storeid": "131"
    }
  },
  {
    "geometry": {
      "type": "Point",
      "coordinates": [-27.4831719,153.06437]
    },
    "type": "Feature",
    "properties": {
      "category": "service",
      "name": "Norman Park",
      "storeid": "132"
    }
  },
  {
    "geometry": {
      "type": "Point",
      "coordinates": [-27.3837161,153.1679033]
    },
    "type": "Feature",
    "properties": {
      "category": "service",
      "name": "Port of Brisbane",
      "storeid": "133"
    }
  },
  {
    "geometry": {
      "type": "Point",
      "coordinates": [-27.4865844,153.1808918]
    },
    "type": "Feature",
    "properties": {
      "category": "service",
      "name": "Ransome",
      "storeid": "134"
    }
  },
  {
    "geometry": {
      "type": "Point",
      "coordinates": [-33.7779124,150.9321578]
    },
    "type": "Feature",
    "properties": {
      "category": "service",
      "name": "Seven Hills",
      "storeid": "135"
    }
  },
  {
    "geometry": {
      "type": "Point",
      "coordinates": [-27.474896,153.129403]
    },
    "type": "Feature",
    "properties": {
      "category": "service",
      "name": "Tingalpa",
      "storeid": "136"
    }
  },
  {
    "geometry": {
      "type": "Point",
      "coordinates": [-27.4831003,153.1506396]
    },
    "type": "Feature",
    "properties": {
      "category": "service",
      "name": "Wakerley",
      "storeid": "137"
    }
  },
  {
    "geometry": {
      "type": "Point",
      "coordinates": [-27.443694,153.173618]
    },
    "type": "Feature",
    "properties": {
      "category": "service",
      "name": "Wynnum",
      "storeid": "138"
    }
  },
  {
    "geometry": {
      "type": "Point",
      "coordinates": [-27.5411939,152.8623716]
    },
    "type": "Feature",
    "properties": {
      "category": "service",
      "name": "Anstead",
      "storeid": "139"
    }
  },
  {
    "geometry": {
      "type": "Point",
      "coordinates": [-27.4455875,152.9922137]
    },
    "type": "Feature",
    "properties": {
      "category": "service",
      "name": "Ashgrove",
      "storeid": "140"
    }
  },
  {
    "geometry": {
      "type": "Point",
      "coordinates": [-27.4755182,152.9934343]
    },
    "type": "Feature",
    "properties": {
      "category": "service",
      "name": "Auchenflower",
      "storeid": "141"
    }
  },
  {
    "geometry": {
      "type": "Point",
      "coordinates": [-27.4579508,152.9858218]
    },
    "type": "Feature",
    "properties": {
      "category": "service",
      "name": "Bardon",
      "storeid": "142"
    }
  },
  {
    "geometry": {
      "type": "Point",
      "coordinates": [-27.5619404,152.8868313]
    },
    "type": "Feature",
    "properties": {
      "category": "service",
      "name": "Bellbowrie",
      "storeid": "143"
    }
  },
  {
    "geometry": {
      "type": "Point",
      "coordinates": [-27.4946276,152.9088908]
    },
    "type": "Feature",
    "properties": {
      "category": "service",
      "name": "Brookfield",
      "storeid": "144"
    }
  },
  {
    "geometry": {
      "type": "Point",
      "coordinates": [-27.494799,152.9519831]
    },
    "type": "Feature",
    "properties": {
      "category": "service",
      "name": "Chapel Hill",
      "storeid": "145"
    }
  },
  {
    "geometry": {
      "type": "Point",
      "coordinates": [-27.5137668,152.979572]
    },
    "type": "Feature",
    "properties": {
      "category": "service",
      "name": "Chelmer",
      "storeid": "146"
    }
  },
  {
    "geometry": {
      "type": "Point",
      "coordinates": [-27.560072,152.7948188]
    },
    "type": "Feature",
    "properties": {
      "category": "service",
      "name": "Chuwar",
      "storeid": "147"
    }
  },
  {
    "geometry": {
      "type": "Point",
      "coordinates": [-27.5436211,152.9809401]
    },
    "type": "Feature",
    "properties": {
      "category": "service",
      "name": "Corinda",
      "storeid": "148"
    }
  },
  {
    "geometry": {
      "type": "Point",
      "coordinates": [-27.4223573,152.9907522]
    },
    "type": "Feature",
    "properties": {
      "category": "service",
      "name": "Enoggera",
      "storeid": "149"
    }
  },
  {
    "geometry": {
      "type": "Point",
      "coordinates": [-27.5295584,152.9616315]
    },
    "type": "Feature",
    "properties": {
      "category": "service",
      "name": "Fig Tree Pocket",
      "storeid": "150"
    }
  },
  {
    "geometry": {
      "type": "Point",
      "coordinates": [-27.5217106,152.9797397]
    },
    "type": "Feature",
    "properties": {
      "category": "service",
      "name": "Graceville",
      "storeid": "151"
    }
  },
  {
    "geometry": {
      "type": "Point",
      "coordinates": [-27.5020067,152.9758891]
    },
    "type": "Feature",
    "properties": {
      "category": "service",
      "name": "Indooroopilly",
      "storeid": "152"
    }
  },
  {
    "geometry": {
      "type": "Point",
      "coordinates": [-27.5563736,152.9329105]
    },
    "type": "Feature",
    "properties": {
      "category": "service",
      "name": "Jamboree Heights",
      "storeid": "153"
    }
  },
  {
    "geometry": {
      "type": "Point",
      "coordinates": [-31.650742,115.6921259]
    },
    "type": "Feature",
    "properties": {
      "category": "service",
      "name": "Jindalee",
      "storeid": "154"
    }
  },
  {
    "geometry": {
      "type": "Point",
      "coordinates": [-27.5472004,152.8234067]
    },
    "type": "Feature",
    "properties": {
      "category": "service",
      "name": "Karana Downs",
      "storeid": "155"
    }
  },
  {
    "geometry": {
      "type": "Point",
      "coordinates": [-27.5102833,152.9377589]
    },
    "type": "Feature",
    "properties": {
      "category": "service",
      "name": "Kenmore",
      "storeid": "156"
    }
  },
  {
    "geometry": {
      "type": "Point",
      "coordinates": [-27.5317031,152.75624]
    },
    "type": "Feature",
    "properties": {
      "category": "service",
      "name": "Kholo",
      "storeid": "157"
    }
  },
  {
    "geometry": {
      "type": "Point",
      "coordinates": [-27.4681349,152.738926]
    },
    "type": "Feature",
    "properties": {
      "category": "service",
      "name": "Lake Manchester",
      "storeid": "158"
    }
  },
  {
    "geometry": {
      "type": "Point",
      "coordinates": [-37.8509396,144.9615926]
    },
    "type": "Feature",
    "properties": {
      "category": "service",
      "name": "Middle Park",
      "storeid": "159"
    }
  },
  {
    "geometry": {
      "type": "Point",
      "coordinates": [-35.3177917999999,150.440171]
    },
    "type": "Feature",
    "properties": {
      "category": "service",
      "name": "Milton",
      "storeid": "160"
    }
  },
  {
    "geometry": {
      "type": "Point",
      "coordinates": [-27.5714989,152.8731552]
    },
    "type": "Feature",
    "properties": {
      "category": "service",
      "name": "Moggill",
      "storeid": "161"
    }
  },
  {
    "geometry": {
      "type": "Point",
      "coordinates": [-27.475767,152.9764734]
    },
    "type": "Feature",
    "properties": {
      "category": "service",
      "name": "Mount Coot-tha",
      "storeid": "162"
    }
  },
  {
    "geometry": {
      "type": "Point",
      "coordinates": [-27.5399492,152.8044724]
    },
    "type": "Feature",
    "properties": {
      "category": "service",
      "name": "Mount Crosby",
      "storeid": "163"
    }
  },
  {
    "geometry": {
      "type": "Point",
      "coordinates": [-27.5452429,152.9319813]
    },
    "type": "Feature",
    "properties": {
      "category": "service",
      "name": "Mount Ommaney",
      "storeid": "164"
    }
  },
  {
    "geometry": {
      "type": "Point",
      "coordinates": [-36.4398222,146.3611146]
    },
    "type": "Feature",
    "properties": {
      "category": "service",
      "name": "Oxley",
      "storeid": "165"
    }
  },
  {
    "geometry": {
      "type": "Point",
      "coordinates": [-27.5390861,152.8975045]
    },
    "type": "Feature",
    "properties": {
      "category": "service",
      "name": "Pinjarra Hills",
      "storeid": "166"
    }
  },
  {
    "geometry": {
      "type": "Point",
      "coordinates": [-27.5235283,152.8866235]
    },
    "type": "Feature",
    "properties": {
      "category": "service",
      "name": "Pullenvale",
      "storeid": "167"
    }
  },
  {
    "geometry": {
      "type": "Point",
      "coordinates": [-27.5604,152.909]
    },
    "type": "Feature",
    "properties": {
      "category": "service",
      "name": "Riverhills",
      "storeid": "168"
    }
  },
  {
    "geometry": {
      "type": "Point",
      "coordinates": [-27.551,152.959]
    },
    "type": "Feature",
    "properties": {
      "category": "service",
      "name": "Seventeen Mile Rocks",
      "storeid": "169"
    }
  },
  {
    "geometry": {
      "type": "Point",
      "coordinates": [-27.5323639,152.9829502]
    },
    "type": "Feature",
    "properties": {
      "category": "service",
      "name": "Sherwood",
      "storeid": "170"
    }
  },
  {
    "geometry": {
      "type": "Point",
      "coordinates": [-27.5454226,152.9447526]
    },
    "type": "Feature",
    "properties": {
      "category": "service",
      "name": "Sinnamon Park",
      "storeid": "171"
    }
  },
  {
    "geometry": {
      "type": "Point",
      "coordinates": [-27.5020948,152.9968212]
    },
    "type": "Feature",
    "properties": {
      "category": "service",
      "name": "St Lucia",
      "storeid": "172"
    }
  },
  {
    "geometry": {
      "type": "Point",
      "coordinates": [-27.4918195,152.9806107]
    },
    "type": "Feature",
    "properties": {
      "category": "service",
      "name": "Taringa",
      "storeid": "173"
    }
  },
  {
    "geometry": {
      "type": "Point",
      "coordinates": [-33.843075,151.2843031]
    },
    "type": "Feature",
    "properties": {
      "category": "service",
      "name": "The Gap",
      "storeid": "174"
    }
  },
  {
    "geometry": {
      "type": "Point",
      "coordinates": [-27.4842895,152.9837482]
    },
    "type": "Feature",
    "properties": {
      "category": "service",
      "name": "Toowong",
      "storeid": "175"
    }
  },
  {
    "geometry": {
      "type": "Point",
      "coordinates": [-27.4721055,152.851685]
    },
    "type": "Feature",
    "properties": {
      "category": "service",
      "name": "Upper Brookfield",
      "storeid": "176"
    }
  },
  {
    "geometry": {
      "type": "Point",
      "coordinates": [-27.4127157,152.921983]
    },
    "type": "Feature",
    "properties": {
      "category": "service",
      "name": "Upper Kedron",
      "storeid": "177"
    }
  },
  {
    "geometry": {
      "type": "Point",
      "coordinates": [-27.5447405,152.917556]
    },
    "type": "Feature",
    "properties": {
      "category": "service",
      "name": "Westlake",
      "storeid": "178"
    }
  },
  {
    "geometry": {
      "type": "Point",
      "coordinates": [-27.5234744,153.2258271]
    },
    "type": "Feature",
    "properties": {
      "category": "service",
      "name": "Alexandra Hills",
      "storeid": "179"
    }
  },
  {
    "geometry": {
      "type": "Point",
      "coordinates": [-27.3978659,153.439061]
    },
    "type": "Feature",
    "properties": {
      "category": "service",
      "name": "Amity Point",
      "storeid": "180"
    }
  },
  {
    "geometry": {
      "type": "Point",
      "coordinates": [-27.4935931,153.2137869]
    },
    "type": "Feature",
    "properties": {
      "category": "service",
      "name": "Birkdale",
      "storeid": "181"
    }
  },
  {
    "geometry": {
      "type": "Point",
      "coordinates": [-27.5354669,153.1971252]
    },
    "type": "Feature",
    "properties": {
      "category": "service",
      "name": "Capalaba",
      "storeid": "182"
    }
  },
  {
    "geometry": {
      "type": "Point",
      "coordinates": [-27.5251556,153.2792833]
    },
    "type": "Feature",
    "properties": {
      "category": "service",
      "name": "Cleveland",
      "storeid": "183"
    }
  },
  {
    "geometry": {
      "type": "Point",
      "coordinates": [-27.6141228,153.2362301]
    },
    "type": "Feature",
    "properties": {
      "category": "service",
      "name": "Mount Cotton",
      "storeid": "184"
    }
  },
  {
    "geometry": {
      "type": "Point",
      "coordinates": [-27.5120736,153.2566502]
    },
    "type": "Feature",
    "properties": {
      "category": "service",
      "name": "Ormiston",
      "storeid": "185"
    }
  },
  {
    "geometry": {
      "type": "Point",
      "coordinates": [-27.6124586,153.3030618]
    },
    "type": "Feature",
    "properties": {
      "category": "service",
      "name": "Redland Bay",
      "storeid": "186"
    }
  },
  {
    "geometry": {
      "type": "Point",
      "coordinates": [-27.575608,153.1985315]
    },
    "type": "Feature",
    "properties": {
      "category": "service",
      "name": "Sheldon",
      "storeid": "187"
    }
  },
  {
    "geometry": {
      "type": "Point",
      "coordinates": [-27.4835626,153.2010293]
    },
    "type": "Feature",
    "properties": {
      "category": "service",
      "name": "Thorneside",
      "storeid": "188"
    }
  },
  {
    "geometry": {
      "type": "Point",
      "coordinates": [-27.5634341,153.2699093]
    },
    "type": "Feature",
    "properties": {
      "category": "service",
      "name": "Thornlands",
      "storeid": "189"
    }
  },
  {
    "geometry": {
      "type": "Point",
      "coordinates": [-27.5879419,153.303966]
    },
    "type": "Feature",
    "properties": {
      "category": "service",
      "name": "Victoria Point",
      "storeid": "190"
    }
  },
  {
    "geometry": {
      "type": "Point",
      "coordinates": [-27.4865793,153.238531]
    },
    "type": "Feature",
    "properties": {
      "category": "service",
      "name": "Wellington Point",
      "storeid": "191"
    }
  }
]
}
